header: 
  seq: 52368
  stamp: 
    secs: 1504393775
    nsecs: 105276805
  frame_id: ''
axes: [-0.0, -0.0, -0.0, -0.0, 0.0, 0.0]
buttons: [0, 0, 0, 0, 0, 0, 0, 0, 0, 0, 0, 0]
---
header: 
  seq: 52369
  stamp: 
    secs: 1504393775
    nsecs: 105276805
  frame_id: ''
axes: [-0.0, -0.0, -0.0, -0.0, 0.0, 0.0]
buttons: [0, 0, 0, 0, 0, 0, 0, 0, 0, 0, 0, 0]
---
header: 
  seq: 52370
  stamp: 
    secs: 1504393775
    nsecs: 105276805
  frame_id: ''
axes: [-0.0, -0.0, -0.0, -0.0, 0.0, 0.0]
buttons: [0, 0, 0, 0, 0, 0, 0, 0, 0, 0, 0, 0]
---
header: 
  seq: 52371
  stamp: 
    secs: 1504393775
    nsecs: 105276805
  frame_id: ''
axes: [-0.0, -0.0, -0.0, -0.0, 0.0, 0.0]
buttons: [0, 0, 0, 0, 0, 0, 0, 0, 0, 0, 0, 0]
---
header: 
  seq: 52372
  stamp: 
    secs: 1504393775
    nsecs: 105276805
  frame_id: ''
axes: [-0.0, -0.0, -0.0, -0.0, 0.0, 0.0]
buttons: [0, 0, 0, 0, 0, 0, 0, 0, 0, 0, 0, 0]
---
header: 
  seq: 52373
  stamp: 
    secs: 1504393775
    nsecs: 105276805
  frame_id: ''
axes: [-0.0, -0.0, -0.0, -0.0, 0.0, 0.0]
buttons: [0, 0, 0, 0, 0, 0, 0, 0, 0, 0, 0, 0]
---
header: 
  seq: 52374
  stamp: 
    secs: 1504393775
    nsecs: 105276805
  frame_id: ''
axes: [-0.0, -0.0, -0.0, -0.0, 0.0, 0.0]
buttons: [0, 0, 0, 0, 0, 0, 0, 0, 0, 0, 0, 0]
---
header: 
  seq: 52375
  stamp: 
    secs: 1504393775
    nsecs: 105276805
  frame_id: ''
axes: [-0.0, -0.0, -0.0, -0.0, 0.0, 0.0]
buttons: [0, 0, 0, 0, 0, 0, 0, 0, 0, 0, 0, 0]
---
header: 
  seq: 52376
  stamp: 
    secs: 1504393775
    nsecs: 105276805
  frame_id: ''
axes: [-0.0, -0.0, -0.0, -0.0, 0.0, 0.0]
buttons: [0, 0, 0, 0, 0, 0, 0, 0, 0, 0, 0, 0]
---
header: 
  seq: 52377
  stamp: 
    secs: 1504393775
    nsecs: 105276805
  frame_id: ''
axes: [-0.0, -0.0, -0.0, -0.0, 0.0, 0.0]
buttons: [0, 0, 0, 0, 0, 0, 0, 0, 0, 0, 0, 0]
---
header: 
  seq: 52378
  stamp: 
    secs: 1504393775
    nsecs: 105276805
  frame_id: ''
axes: [-0.0, -0.0, -0.0, -0.0, 0.0, 0.0]
buttons: [0, 0, 0, 0, 0, 0, 0, 0, 0, 0, 0, 0]
---
header: 
  seq: 52379
  stamp: 
    secs: 1504393775
    nsecs: 105276805
  frame_id: ''
axes: [-0.0, -0.0, -0.0, -0.0, 0.0, 0.0]
buttons: [0, 0, 0, 0, 0, 0, 0, 0, 0, 0, 0, 0]
---
header: 
  seq: 52380
  stamp: 
    secs: 1504393775
    nsecs: 105276805
  frame_id: ''
axes: [-0.0, -0.0, -0.0, -0.0, 0.0, 0.0]
buttons: [0, 0, 0, 0, 0, 0, 0, 0, 0, 0, 0, 0]
---
header: 
  seq: 52381
  stamp: 
    secs: 1504393775
    nsecs: 105276805
  frame_id: ''
axes: [-0.0, -0.0, -0.0, -0.0, 0.0, 0.0]
buttons: [0, 0, 0, 0, 0, 0, 0, 0, 0, 0, 0, 0]
---
header: 
  seq: 52382
  stamp: 
    secs: 1504393775
    nsecs: 105276805
  frame_id: ''
axes: [-0.0, -0.0, -0.0, -0.0, 0.0, 0.0]
buttons: [0, 0, 0, 0, 0, 0, 0, 0, 0, 0, 0, 0]
---
header: 
  seq: 52383
  stamp: 
    secs: 1504393775
    nsecs: 105276805
  frame_id: ''
axes: [-0.0, -0.0, -0.0, -0.0, 0.0, 0.0]
buttons: [0, 0, 0, 0, 0, 0, 0, 0, 0, 0, 0, 0]
---
header: 
  seq: 52384
  stamp: 
    secs: 1504393775
    nsecs: 105276805
  frame_id: ''
axes: [-0.0, -0.0, -0.0, -0.0, 0.0, 0.0]
buttons: [0, 0, 0, 0, 0, 0, 0, 0, 0, 0, 0, 0]
---
header: 
  seq: 52385
  stamp: 
    secs: 1504393775
    nsecs: 105276805
  frame_id: ''
axes: [-0.0, -0.0, -0.0, -0.0, 0.0, 0.0]
buttons: [0, 0, 0, 0, 0, 0, 0, 0, 0, 0, 0, 0]
---
header: 
  seq: 52386
  stamp: 
    secs: 1504393775
    nsecs: 105276805
  frame_id: ''
axes: [-0.0, -0.0, -0.0, -0.0, 0.0, 0.0]
buttons: [0, 0, 0, 0, 0, 0, 0, 0, 0, 0, 0, 0]
---
header: 
  seq: 52387
  stamp: 
    secs: 1504393775
    nsecs: 105276805
  frame_id: ''
axes: [-0.0, -0.0, -0.0, -0.0, 0.0, 0.0]
buttons: [0, 0, 0, 0, 0, 0, 0, 0, 0, 0, 0, 0]
---
header: 
  seq: 52388
  stamp: 
    secs: 1504393775
    nsecs: 105276805
  frame_id: ''
axes: [-0.0, -0.0, -0.0, -0.0, 0.0, 0.0]
buttons: [0, 0, 0, 0, 0, 0, 0, 0, 0, 0, 0, 0]
---
header: 
  seq: 52389
  stamp: 
    secs: 1504393775
    nsecs: 105276805
  frame_id: ''
axes: [-0.0, -0.0, -0.0, -0.0, 0.0, 0.0]
buttons: [0, 0, 0, 0, 0, 0, 0, 0, 0, 0, 0, 0]
---
header: 
  seq: 52390
  stamp: 
    secs: 1504393775
    nsecs: 105276805
  frame_id: ''
axes: [-0.0, -0.0, -0.0, -0.0, 0.0, 0.0]
buttons: [0, 0, 0, 0, 0, 0, 0, 0, 0, 0, 0, 0]
---
header: 
  seq: 52391
  stamp: 
    secs: 1504393775
    nsecs: 105276805
  frame_id: ''
axes: [-0.0, -0.0, -0.0, -0.0, 0.0, 0.0]
buttons: [0, 0, 0, 0, 0, 0, 0, 0, 0, 0, 0, 0]
---
header: 
  seq: 52392
  stamp: 
    secs: 1504393775
    nsecs: 105276805
  frame_id: ''
axes: [-0.0, -0.0, -0.0, -0.0, 0.0, 0.0]
buttons: [0, 0, 0, 0, 0, 0, 0, 0, 0, 0, 0, 0]
---
header: 
  seq: 52393
  stamp: 
    secs: 1504393775
    nsecs: 105276805
  frame_id: ''
axes: [-0.0, -0.0, -0.0, -0.0, 0.0, 0.0]
buttons: [0, 0, 0, 0, 0, 0, 0, 0, 0, 0, 0, 0]
---
header: 
  seq: 52394
  stamp: 
    secs: 1504393775
    nsecs: 105276805
  frame_id: ''
axes: [-0.0, -0.0, -0.0, -0.0, 0.0, 0.0]
buttons: [0, 0, 0, 0, 0, 0, 0, 0, 0, 0, 0, 0]
---
header: 
  seq: 52395
  stamp: 
    secs: 1504393775
    nsecs: 105276805
  frame_id: ''
axes: [-0.0, -0.0, -0.0, -0.0, 0.0, 0.0]
buttons: [0, 0, 0, 0, 0, 0, 0, 0, 0, 0, 0, 0]
---
header: 
  seq: 52396
  stamp: 
    secs: 1504393775
    nsecs: 105276805
  frame_id: ''
axes: [-0.0, -0.0, -0.0, -0.0, 0.0, 0.0]
buttons: [0, 0, 0, 0, 0, 0, 0, 0, 0, 0, 0, 0]
---
header: 
  seq: 52397
  stamp: 
    secs: 1504393775
    nsecs: 105276805
  frame_id: ''
axes: [-0.0, -0.0, -0.0, -0.0, 0.0, 0.0]
buttons: [0, 0, 0, 0, 0, 0, 0, 0, 0, 0, 0, 0]
---
header: 
  seq: 52398
  stamp: 
    secs: 1504393775
    nsecs: 105276805
  frame_id: ''
axes: [-0.0, -0.0, -0.0, -0.0, 0.0, 0.0]
buttons: [0, 0, 0, 0, 0, 0, 0, 0, 0, 0, 0, 0]
---
header: 
  seq: 52399
  stamp: 
    secs: 1504393775
    nsecs: 105276805
  frame_id: ''
axes: [-0.0, -0.0, -0.0, -0.0, 0.0, 0.0]
buttons: [0, 0, 0, 0, 0, 0, 0, 0, 0, 0, 0, 0]
---
header: 
  seq: 52400
  stamp: 
    secs: 1504393775
    nsecs: 105276805
  frame_id: ''
axes: [-0.0, -0.0, -0.0, -0.0, 0.0, 0.0]
buttons: [0, 0, 0, 0, 0, 0, 0, 0, 0, 0, 0, 0]
---
header: 
  seq: 52401
  stamp: 
    secs: 1504393775
    nsecs: 105276805
  frame_id: ''
axes: [-0.0, -0.0, -0.0, -0.0, 0.0, 0.0]
buttons: [0, 0, 0, 0, 0, 0, 0, 0, 0, 0, 0, 0]
---
header: 
  seq: 52402
  stamp: 
    secs: 1504393775
    nsecs: 105276805
  frame_id: ''
axes: [-0.0, -0.0, -0.0, -0.0, 0.0, 0.0]
buttons: [0, 0, 0, 0, 0, 0, 0, 0, 0, 0, 0, 0]
---
header: 
  seq: 52403
  stamp: 
    secs: 1504393775
    nsecs: 105276805
  frame_id: ''
axes: [-0.0, -0.0, -0.0, -0.0, 0.0, 0.0]
buttons: [0, 0, 0, 0, 0, 0, 0, 0, 0, 0, 0, 0]
---
header: 
  seq: 52404
  stamp: 
    secs: 1504393775
    nsecs: 105276805
  frame_id: ''
axes: [-0.0, -0.0, -0.0, -0.0, 0.0, 0.0]
buttons: [0, 0, 0, 0, 0, 0, 0, 0, 0, 0, 0, 0]
---
header: 
  seq: 52405
  stamp: 
    secs: 1504393775
    nsecs: 105276805
  frame_id: ''
axes: [-0.0, -0.0, -0.0, -0.0, 0.0, 0.0]
buttons: [0, 0, 0, 0, 0, 0, 0, 0, 0, 0, 0, 0]
---
header: 
  seq: 52406
  stamp: 
    secs: 1504393775
    nsecs: 105276805
  frame_id: ''
axes: [-0.0, -0.0, -0.0, -0.0, 0.0, 0.0]
buttons: [0, 0, 0, 0, 0, 0, 0, 0, 0, 0, 0, 0]
---
header: 
  seq: 52407
  stamp: 
    secs: 1504393775
    nsecs: 105276805
  frame_id: ''
axes: [-0.0, -0.0, -0.0, -0.0, 0.0, 0.0]
buttons: [0, 0, 0, 0, 0, 0, 0, 0, 0, 0, 0, 0]
---
header: 
  seq: 52408
  stamp: 
    secs: 1504393775
    nsecs: 105276805
  frame_id: ''
axes: [-0.0, -0.0, -0.0, -0.0, 0.0, 0.0]
buttons: [0, 0, 0, 0, 0, 0, 0, 0, 0, 0, 0, 0]
---
header: 
  seq: 52409
  stamp: 
    secs: 1504393775
    nsecs: 105276805
  frame_id: ''
axes: [-0.0, -0.0, -0.0, -0.0, 0.0, 0.0]
buttons: [0, 0, 0, 0, 0, 0, 0, 0, 0, 0, 0, 0]
---
header: 
  seq: 52410
  stamp: 
    secs: 1504394062
    nsecs:  58695149
  frame_id: ''
axes: [-0.0, -0.0, -0.0, -0.0, 0.0, 0.0]
buttons: [0, 0, 0, 0, 1, 0, 0, 0, 0, 0, 0, 0]
---
header: 
  seq: 52411
  stamp: 
    secs: 1504394062
    nsecs:  58695149
  frame_id: ''
axes: [-0.0, -0.0, -0.0, -0.0, 0.0, 0.0]
buttons: [0, 0, 0, 0, 1, 0, 0, 0, 0, 0, 0, 0]
---
header: 
  seq: 52412
  stamp: 
    secs: 1504394062
    nsecs:  58695149
  frame_id: ''
axes: [-0.0, -0.0, -0.0, -0.0, 0.0, 0.0]
buttons: [0, 0, 0, 0, 1, 0, 0, 0, 0, 0, 0, 0]
---
header: 
  seq: 52413
  stamp: 
    secs: 1504394062
    nsecs:  58695149
  frame_id: ''
axes: [-0.0, -0.0, -0.0, -0.0, 0.0, 0.0]
buttons: [0, 0, 0, 0, 1, 0, 0, 0, 0, 0, 0, 0]
---
header: 
  seq: 52414
  stamp: 
    secs: 1504394062
    nsecs:  58695149
  frame_id: ''
axes: [-0.0, -0.0, -0.0, -0.0, 0.0, 0.0]
buttons: [0, 0, 0, 0, 1, 0, 0, 0, 0, 0, 0, 0]
---
header: 
  seq: 52415
  stamp: 
    secs: 1504394062
    nsecs:  58695149
  frame_id: ''
axes: [-0.0, -0.0, -0.0, -0.0, 0.0, 0.0]
buttons: [0, 0, 0, 0, 1, 0, 0, 0, 0, 0, 0, 0]
---
header: 
  seq: 52416
  stamp: 
    secs: 1504394062
    nsecs: 330649399
  frame_id: ''
axes: [-0.0, -0.0, -0.0, 0.14612910151481628, 0.0, 0.0]
buttons: [0, 0, 0, 0, 1, 0, 0, 0, 0, 0, 0, 0]
---
header: 
  seq: 52417
  stamp: 
    secs: 1504394062
    nsecs: 342675329
  frame_id: ''
axes: [-0.0, -0.0, -0.0, 0.28148946166038513, 0.0, 0.0]
buttons: [0, 0, 0, 0, 1, 0, 0, 0, 0, 0, 0, 0]
---
header: 
  seq: 52418
  stamp: 
    secs: 1504394062
    nsecs: 354825946
  frame_id: ''
axes: [-0.0, -0.0, -0.0, 0.4481081962585449, 0.0, 0.0]
buttons: [0, 0, 0, 0, 1, 0, 0, 0, 0, 0, 0, 0]
---
header: 
  seq: 52419
  stamp: 
    secs: 1504394062
    nsecs: 366674638
  frame_id: ''
axes: [-0.0, -0.0, -0.0, 0.5522410869598389, 0.0, 0.0]
buttons: [0, 0, 0, 0, 1, 0, 0, 0, 0, 0, 0, 0]
---
header: 
  seq: 52420
  stamp: 
    secs: 1504394062
    nsecs: 378628225
  frame_id: ''
axes: [-0.0, -0.0, -0.0, 0.6355658173561096, 0.0, 0.0]
buttons: [0, 0, 0, 0, 1, 0, 0, 0, 0, 0, 0, 0]
---
header: 
  seq: 52421
  stamp: 
    secs: 1504394062
    nsecs: 390640406
  frame_id: ''
axes: [-0.0, -0.0, -0.0, 0.7396987080574036, 0.0, 0.0]
buttons: [0, 0, 0, 0, 1, 0, 0, 0, 0, 0, 0, 0]
---
header: 
  seq: 52422
  stamp: 
    secs: 1504394062
    nsecs: 402649565
  frame_id: ''
axes: [-0.0, -0.0, 0.00031844060868024826, 0.9375757575035095, 0.0, 0.0]
buttons: [0, 0, 0, 0, 1, 0, 0, 0, 0, 0, 0, 0]
---
header: 
  seq: 52423
  stamp: 
    secs: 1504394062
    nsecs: 414644558
  frame_id: ''
axes: [-0.0, -0.0, 0.0940626710653305, 1.0, 0.0, 0.0]
buttons: [0, 0, 0, 0, 1, 0, 0, 0, 0, 0, 0, 0]
---
header: 
  seq: 52424
  stamp: 
    secs: 1504394062
    nsecs: 426713561
  frame_id: ''
axes: [-0.0, -0.0, 0.14612910151481628, 1.0, 0.0, 0.0]
buttons: [0, 0, 0, 0, 1, 0, 0, 0, 0, 0, 0, 0]
---
header: 
  seq: 52425
  stamp: 
    secs: 1504394062
    nsecs: 444624333
  frame_id: ''
axes: [-0.0, -0.0, 0.15654854476451874, 1.0, 0.0, 0.0]
buttons: [0, 0, 0, 0, 1, 0, 0, 0, 0, 0, 0, 0]
---
header: 
  seq: 52426
  stamp: 
    secs: 1504394062
    nsecs: 466603087
  frame_id: ''
axes: [-0.0, -0.0, 0.19819551706314087, 1.0, 0.0, 0.0]
buttons: [0, 0, 0, 0, 1, 0, 0, 0, 0, 0, 0, 0]
---
header: 
  seq: 52427
  stamp: 
    secs: 1504394062
    nsecs: 474615825
  frame_id: ''
axes: [-0.0, -0.0, 0.25026196241378784, 1.0, 0.0, 0.0]
buttons: [0, 0, 0, 0, 1, 0, 0, 0, 0, 0, 0, 0]
---
header: 
  seq: 52428
  stamp: 
    secs: 1504394062
    nsecs: 494645067
  frame_id: ''
axes: [-0.0, -0.0, 0.2606813907623291, 0.9479643702507019, 0.0, 0.0]
buttons: [0, 0, 0, 0, 1, 0, 0, 0, 0, 0, 0, 0]
---
header: 
  seq: 52429
  stamp: 
    secs: 1504394062
    nsecs: 506626258
  frame_id: ''
axes: [-0.0, -0.0, 0.2606813907623291, 0.7292792201042175, 0.0, 0.0]
buttons: [0, 0, 0, 0, 1, 0, 0, 0, 0, 0, 0, 0]
---
header: 
  seq: 52430
  stamp: 
    secs: 1504394062
    nsecs: 518656459
  frame_id: ''
axes: [-0.0, -0.0, 0.15654854476451874, 0.5418524146080017, 0.0, 0.0]
buttons: [0, 0, 0, 0, 1, 0, 0, 0, 0, 0, 0, 0]
---
header: 
  seq: 52431
  stamp: 
    secs: 1504394062
    nsecs: 530642494
  frame_id: ''
axes: [-0.0, -0.0, 0.0523848682641983, 0.36481425166130066, 0.0, 0.0]
buttons: [0, 0, 0, 0, 1, 0, 0, 0, 0, 0, 0, 0]
---
header: 
  seq: 52432
  stamp: 
    secs: 1504394062
    nsecs: 534630686
  frame_id: ''
axes: [-0.0, -0.0, -0.0, -0.0, 0.0, 0.0]
buttons: [0, 0, 0, 0, 1, 0, 0, 0, 0, 0, 0, 0]
---
header: 
  seq: 52433
  stamp: 
    secs: 1504394062
    nsecs: 534630686
  frame_id: ''
axes: [-0.0, -0.0, -0.0, -0.0, 0.0, 0.0]
buttons: [0, 0, 0, 0, 1, 0, 0, 0, 0, 0, 0, 0]
---
header: 
  seq: 52434
  stamp: 
    secs: 1504394062
    nsecs: 534630686
  frame_id: ''
axes: [-0.0, -0.0, -0.0, -0.0, 0.0, 0.0]
buttons: [0, 0, 0, 0, 1, 0, 0, 0, 0, 0, 0, 0]
---
header: 
  seq: 52435
  stamp: 
    secs: 1504394062
    nsecs: 534630686
  frame_id: ''
axes: [-0.0, -0.0, -0.0, -0.0, 0.0, 0.0]
buttons: [0, 0, 0, 0, 1, 0, 0, 0, 0, 0, 0, 0]
---
header: 
  seq: 52436
  stamp: 
    secs: 1504394062
    nsecs: 534630686
  frame_id: ''
axes: [-0.0, -0.0, -0.0, -0.0, 0.0, 0.0]
buttons: [0, 0, 0, 0, 1, 0, 0, 0, 0, 0, 0, 0]
---
header: 
  seq: 52437
  stamp: 
    secs: 1504394062
    nsecs: 802726326
  frame_id: ''
axes: [-0.0, 0.08364322036504745, -0.0, -0.0, 0.0, 0.0]
buttons: [0, 0, 0, 0, 1, 0, 0, 0, 0, 0, 0, 0]
---
header: 
  seq: 52438
  stamp: 
    secs: 1504394062
    nsecs: 814630643
  frame_id: ''
axes: [-0.0, 0.28148946166038513, -0.0, -0.0, 0.0, 0.0]
buttons: [0, 0, 0, 0, 1, 0, 0, 0, 0, 0, 0, 0]
---
header: 
  seq: 52439
  stamp: 
    secs: 1504394062
    nsecs: 826686313
  frame_id: ''
axes: [-0.0, 0.39604178071022034, -0.0, -0.0, 0.0, 0.0]
buttons: [0, 0, 0, 0, 1, 0, 0, 0, 0, 0, 0, 0]
---
header: 
  seq: 52440
  stamp: 
    secs: 1504394062
    nsecs: 838695733
  frame_id: ''
axes: [-0.0, 0.5314329862594604, -0.0, -0.0, 0.0, 0.0]
buttons: [0, 0, 0, 0, 1, 0, 0, 0, 0, 0, 0, 0]
---
header: 
  seq: 52441
  stamp: 
    secs: 1504394062
    nsecs: 852657999
  frame_id: ''
axes: [-0.06277348846197128, 0.6564047336578369, -0.0, -0.0, 0.0, 0.0]
buttons: [0, 0, 0, 0, 1, 0, 0, 0, 0, 0, 0, 0]
---
header: 
  seq: 52442
  stamp: 
    secs: 1504394062
    nsecs: 863066028
  frame_id: ''
axes: [-0.13567881286144257, 0.7917650938034058, -0.0, -0.0, 0.0, 0.0]
buttons: [0, 0, 0, 0, 1, 0, 0, 0, 0, 0, 0, 0]
---
header: 
  seq: 52443
  stamp: 
    secs: 1504394062
    nsecs: 874666337
  frame_id: ''
axes: [-0.18774524331092834, 0.916736900806427, -0.0, -0.0, 0.0, 0.0]
buttons: [0, 0, 0, 0, 1, 0, 0, 0, 0, 0, 0, 0]
---
header: 
  seq: 52444
  stamp: 
    secs: 1504394062
    nsecs: 886656799
  frame_id: ''
axes: [-0.28145864605903625, 1.0, -0.0, -0.0, 0.0, 0.0]
buttons: [0, 0, 0, 0, 1, 0, 0, 0, 0, 0, 0, 0]
---
header: 
  seq: 52445
  stamp: 
    secs: 1504394062
    nsecs: 899116058
  frame_id: ''
axes: [-0.3127169907093048, 1.0, -0.0, -0.0, 0.0, 0.0]
buttons: [0, 0, 0, 0, 1, 0, 0, 0, 0, 0, 0, 0]
---
header: 
  seq: 52446
  stamp: 
    secs: 1504394062
    nsecs: 906602187
  frame_id: ''
axes: [-0.33352506160736084, 1.0, -0.0, -0.0, 0.0, 0.0]
buttons: [0, 0, 0, 0, 1, 0, 0, 0, 0, 0, 0, 0]
---
header: 
  seq: 52447
  stamp: 
    secs: 1504394062
    nsecs: 918745303
  frame_id: ''
axes: [-0.35436397790908813, 1.0, -0.0, -0.0, 0.0, 0.0]
buttons: [0, 0, 0, 0, 1, 0, 0, 0, 0, 0, 0, 0]
---
header: 
  seq: 52448
  stamp: 
    secs: 1504394062
    nsecs: 918745303
  frame_id: ''
axes: [-0.35436397790908813, 1.0, -0.0, -0.0, 0.0, 0.0]
buttons: [0, 0, 0, 0, 1, 0, 0, 0, 0, 0, 0, 0]
---
header: 
  seq: 52449
  stamp: 
    secs: 1504394062
    nsecs: 918745303
  frame_id: ''
axes: [-0.35436397790908813, 1.0, -0.0, -0.0, 0.0, 0.0]
buttons: [0, 0, 0, 0, 1, 0, 0, 0, 0, 0, 0, 0]
---
header: 
  seq: 52450
  stamp: 
    secs: 1504394062
    nsecs: 918745303
  frame_id: ''
axes: [-0.35436397790908813, 1.0, -0.0, -0.0, 0.0, 0.0]
buttons: [0, 0, 0, 0, 1, 0, 0, 0, 0, 0, 0, 0]
---
header: 
  seq: 52451
  stamp: 
    secs: 1504394062
    nsecs: 918745303
  frame_id: ''
axes: [-0.35436397790908813, 1.0, -0.0, -0.0, 0.0, 0.0]
buttons: [0, 0, 0, 0, 1, 0, 0, 0, 0, 0, 0, 0]
---
header: 
  seq: 52452
  stamp: 
    secs: 1504394062
    nsecs: 918745303
  frame_id: ''
axes: [-0.35436397790908813, 1.0, -0.0, -0.0, 0.0, 0.0]
buttons: [0, 0, 0, 0, 1, 0, 0, 0, 0, 0, 0, 0]
---
header: 
  seq: 52453
  stamp: 
    secs: 1504394062
    nsecs: 918745303
  frame_id: ''
axes: [-0.35436397790908813, 1.0, -0.0, -0.0, 0.0, 0.0]
buttons: [0, 0, 0, 0, 1, 0, 0, 0, 0, 0, 0, 0]
---
header: 
  seq: 52454
  stamp: 
    secs: 1504394062
    nsecs: 918745303
  frame_id: ''
axes: [-0.35436397790908813, 1.0, -0.0, -0.0, 0.0, 0.0]
buttons: [0, 0, 0, 0, 1, 0, 0, 0, 0, 0, 0, 0]
---
header: 
  seq: 52455
  stamp: 
    secs: 1504394062
    nsecs: 918745303
  frame_id: ''
axes: [-0.35436397790908813, 1.0, -0.0, -0.0, 0.0, 0.0]
buttons: [0, 0, 0, 0, 1, 0, 0, 0, 0, 0, 0, 0]
---
header: 
  seq: 52456
  stamp: 
    secs: 1504394062
    nsecs: 918745303
  frame_id: ''
axes: [-0.35436397790908813, 1.0, -0.0, -0.0, 0.0, 0.0]
buttons: [0, 0, 0, 0, 1, 0, 0, 0, 0, 0, 0, 0]
---
header: 
  seq: 52457
  stamp: 
    secs: 1504394063
    nsecs: 394742819
  frame_id: ''
axes: [-0.3127169907093048, 1.0, -0.0, -0.0, 0.0, 0.0]
buttons: [0, 0, 0, 0, 1, 0, 0, 0, 0, 0, 0, 0]
---
header: 
  seq: 52458
  stamp: 
    secs: 1504394063
    nsecs: 394742819
  frame_id: ''
axes: [-0.3127169907093048, 1.0, -0.0, -0.0, 0.0, 0.0]
buttons: [0, 0, 0, 0, 1, 0, 0, 0, 0, 0, 0, 0]
---
header: 
  seq: 52459
  stamp: 
    secs: 1504394063
    nsecs: 494724601
  frame_id: ''
axes: [-0.30229756236076355, 1.0, -0.0, -0.0, 0.0, 0.0]
buttons: [0, 0, 0, 0, 1, 0, 0, 0, 0, 0, 0, 0]
---
header: 
  seq: 52460
  stamp: 
    secs: 1504394063
    nsecs: 494724601
  frame_id: ''
axes: [-0.30229756236076355, 1.0, -0.0, -0.0, 0.0, 0.0]
buttons: [0, 0, 0, 0, 1, 0, 0, 0, 0, 0, 0, 0]
---
header: 
  seq: 52461
  stamp: 
    secs: 1504394063
    nsecs: 494724601
  frame_id: ''
axes: [-0.30229756236076355, 1.0, -0.0, -0.0, 0.0, 0.0]
buttons: [0, 0, 0, 0, 1, 0, 0, 0, 0, 0, 0, 0]
---
header: 
  seq: 52462
  stamp: 
    secs: 1504394063
    nsecs: 494724601
  frame_id: ''
axes: [-0.30229756236076355, 1.0, -0.0, -0.0, 0.0, 0.0]
buttons: [0, 0, 0, 0, 1, 0, 0, 0, 0, 0, 0, 0]
---
header: 
  seq: 52463
  stamp: 
    secs: 1504394063
    nsecs: 494724601
  frame_id: ''
axes: [-0.30229756236076355, 1.0, -0.0, -0.0, 0.0, 0.0]
buttons: [0, 0, 0, 0, 1, 0, 0, 0, 0, 0, 0, 0]
---
header: 
  seq: 52464
  stamp: 
    secs: 1504394063
    nsecs: 494724601
  frame_id: ''
axes: [-0.30229756236076355, 1.0, -0.0, -0.0, 0.0, 0.0]
buttons: [0, 0, 0, 0, 1, 0, 0, 0, 0, 0, 0, 0]
---
header: 
  seq: 52465
  stamp: 
    secs: 1504394063
    nsecs: 494724601
  frame_id: ''
axes: [-0.30229756236076355, 1.0, -0.0, -0.0, 0.0, 0.0]
buttons: [0, 0, 0, 0, 1, 0, 0, 0, 0, 0, 0, 0]
---
header: 
  seq: 52466
  stamp: 
    secs: 1504394063
    nsecs: 494724601
  frame_id: ''
axes: [-0.30229756236076355, 1.0, -0.0, -0.0, 0.0, 0.0]
buttons: [0, 0, 0, 0, 1, 0, 0, 0, 0, 0, 0, 0]
---
header: 
  seq: 52467
  stamp: 
    secs: 1504394063
    nsecs: 494724601
  frame_id: ''
axes: [-0.30229756236076355, 1.0, -0.0, -0.0, 0.0, 0.0]
buttons: [0, 0, 0, 0, 1, 0, 0, 0, 0, 0, 0, 0]
---
header: 
  seq: 52468
  stamp: 
    secs: 1504394063
    nsecs: 494724601
  frame_id: ''
axes: [-0.30229756236076355, 1.0, -0.0, -0.0, 0.0, 0.0]
buttons: [0, 0, 0, 0, 1, 0, 0, 0, 0, 0, 0, 0]
---
header: 
  seq: 52469
  stamp: 
    secs: 1504394063
    nsecs: 494724601
  frame_id: ''
axes: [-0.30229756236076355, 1.0, -0.0, -0.0, 0.0, 0.0]
buttons: [0, 0, 0, 0, 1, 0, 0, 0, 0, 0, 0, 0]
---
header: 
  seq: 52470
  stamp: 
    secs: 1504394063
    nsecs: 494724601
  frame_id: ''
axes: [-0.30229756236076355, 1.0, -0.0, -0.0, 0.0, 0.0]
buttons: [0, 0, 0, 0, 1, 0, 0, 0, 0, 0, 0, 0]
---
header: 
  seq: 52471
  stamp: 
    secs: 1504394063
    nsecs: 494724601
  frame_id: ''
axes: [-0.30229756236076355, 1.0, -0.0, -0.0, 0.0, 0.0]
buttons: [0, 0, 0, 0, 1, 0, 0, 0, 0, 0, 0, 0]
---
header: 
  seq: 52472
  stamp: 
    secs: 1504394064
    nsecs: 154616245
  frame_id: ''
axes: [-0.30229756236076355, 1.0, -0.0, 0.0940626710653305, 0.0, 0.0]
buttons: [0, 0, 0, 0, 1, 0, 0, 0, 0, 0, 0, 0]
---
header: 
  seq: 52473
  stamp: 
    secs: 1504394064
    nsecs: 166581603
  frame_id: ''
axes: [-0.30229756236076355, 1.0, -0.0, 0.18777607381343842, 0.0, 0.0]
buttons: [0, 0, 0, 0, 1, 0, 0, 0, 0, 0, 0, 0]
---
header: 
  seq: 52474
  stamp: 
    secs: 1504394064
    nsecs: 184837372
  frame_id: ''
axes: [-0.30229756236076355, 1.0, -0.0, 0.27107003331184387, 0.0, 0.0]
buttons: [0, 0, 0, 0, 1, 0, 0, 0, 0, 0, 0, 0]
---
header: 
  seq: 52475
  stamp: 
    secs: 1504394064
    nsecs: 194801029
  frame_id: ''
axes: [-0.30229756236076355, 1.0, -0.0, 0.354394793510437, 0.0, 0.0]
buttons: [0, 0, 0, 0, 1, 0, 0, 0, 0, 0, 0, 0]
---
header: 
  seq: 52476
  stamp: 
    secs: 1504394064
    nsecs: 212057484
  frame_id: ''
axes: [-0.30229756236076355, 1.0, -0.0, 0.4273001253604889, 0.0, 0.0]
buttons: [0, 0, 0, 0, 1, 0, 0, 0, 0, 0, 0, 0]
---
header: 
  seq: 52477
  stamp: 
    secs: 1504394064
    nsecs: 222612490
  frame_id: ''
axes: [-0.30229756236076355, 1.0, -0.0, 0.5210135579109192, 0.0, 0.0]
buttons: [0, 0, 0, 0, 1, 0, 0, 0, 0, 0, 0, 0]
---
header: 
  seq: 52478
  stamp: 
    secs: 1504394064
    nsecs: 234586546
  frame_id: ''
axes: [-0.30229756236076355, 1.0, -0.0, 0.6459853053092957, 0.0, 0.0]
buttons: [0, 0, 0, 0, 1, 0, 0, 0, 0, 0, 0, 0]
---
header: 
  seq: 52479
  stamp: 
    secs: 1504394064
    nsecs: 246762214
  frame_id: ''
axes: [-0.30229756236076355, 1.0, -0.0, 0.854250967502594, 0.0, 0.0]
buttons: [0, 0, 0, 0, 1, 0, 0, 0, 0, 0, 0, 0]
---
header: 
  seq: 52480
  stamp: 
    secs: 1504394064
    nsecs: 258613719
  frame_id: ''
axes: [-0.30229756236076355, 1.0, 0.031576793640851974, 1.0, 0.0, 0.0]
buttons: [0, 0, 0, 0, 1, 0, 0, 0, 0, 0, 0, 0]
---
header: 
  seq: 52481
  stamp: 
    secs: 1504394064
    nsecs: 266765883
  frame_id: ''
axes: [-0.30229756236076355, 1.0, 0.0940626710653305, 1.0, 0.0, 0.0]
buttons: [0, 0, 0, 0, 1, 0, 0, 0, 0, 0, 0, 0]
---
header: 
  seq: 52482
  stamp: 
    secs: 1504394064
    nsecs: 298749232
  frame_id: ''
axes: [-0.30229756236076355, 1.0, 0.11487074196338654, 1.0, 0.0, 0.0]
buttons: [0, 0, 0, 0, 1, 0, 0, 0, 0, 0, 0, 0]
---
header: 
  seq: 52483
  stamp: 
    secs: 1504394064
    nsecs: 321796050
  frame_id: ''
axes: [-0.30229756236076355, 1.0, 0.12529020011425018, 1.0, 0.0, 0.0]
buttons: [0, 0, 0, 0, 1, 0, 0, 0, 0, 0, 0, 0]
---
header: 
  seq: 52484
  stamp: 
    secs: 1504394064
    nsecs: 378655263
  frame_id: ''
axes: [-0.30229756236076355, 1.0, 0.12529020011425018, 0.7396987080574036, 0.0, 0.0]
buttons: [0, 0, 0, 0, 1, 0, 0, 0, 0, 0, 0, 0]
---
header: 
  seq: 52485
  stamp: 
    secs: 1504394064
    nsecs: 392625290
  frame_id: ''
axes: [-0.30229756236076355, 1.0, -0.0, -0.0, 0.0, 0.0]
buttons: [0, 0, 0, 0, 1, 0, 0, 0, 0, 0, 0, 0]
---
header: 
  seq: 52486
  stamp: 
    secs: 1504394064
    nsecs: 392625290
  frame_id: ''
axes: [-0.30229756236076355, 1.0, -0.0, -0.0, 0.0, 0.0]
buttons: [0, 0, 0, 0, 1, 0, 0, 0, 0, 0, 0, 0]
---
header: 
  seq: 52487
  stamp: 
    secs: 1504394064
    nsecs: 392625290
  frame_id: ''
axes: [-0.30229756236076355, 1.0, -0.0, -0.0, 0.0, 0.0]
buttons: [0, 0, 0, 0, 1, 0, 0, 0, 0, 0, 0, 0]
---
header: 
  seq: 52488
  stamp: 
    secs: 1504394064
    nsecs: 392625290
  frame_id: ''
axes: [-0.30229756236076355, 1.0, -0.0, -0.0, 0.0, 0.0]
buttons: [0, 0, 0, 0, 1, 0, 0, 0, 0, 0, 0, 0]
---
header: 
  seq: 52489
  stamp: 
    secs: 1504394064
    nsecs: 392625290
  frame_id: ''
axes: [-0.30229756236076355, 1.0, -0.0, -0.0, 0.0, 0.0]
buttons: [0, 0, 0, 0, 1, 0, 0, 0, 0, 0, 0, 0]
---
header: 
  seq: 52490
  stamp: 
    secs: 1504394064
    nsecs: 392625290
  frame_id: ''
axes: [-0.30229756236076355, 1.0, -0.0, -0.0, 0.0, 0.0]
buttons: [0, 0, 0, 0, 1, 0, 0, 0, 0, 0, 0, 0]
---
header: 
  seq: 52491
  stamp: 
    secs: 1504394064
    nsecs: 392625290
  frame_id: ''
axes: [-0.30229756236076355, 1.0, -0.0, -0.0, 0.0, 0.0]
buttons: [0, 0, 0, 0, 1, 0, 0, 0, 0, 0, 0, 0]
---
header: 
  seq: 52492
  stamp: 
    secs: 1504394064
    nsecs: 392625290
  frame_id: ''
axes: [-0.30229756236076355, 1.0, -0.0, -0.0, 0.0, 0.0]
buttons: [0, 0, 0, 0, 1, 0, 0, 0, 0, 0, 0, 0]
---
header: 
  seq: 52493
  stamp: 
    secs: 1504394064
    nsecs: 392625290
  frame_id: ''
axes: [-0.30229756236076355, 1.0, -0.0, -0.0, 0.0, 0.0]
buttons: [0, 0, 0, 0, 1, 0, 0, 0, 0, 0, 0, 0]
---
header: 
  seq: 52494
  stamp: 
    secs: 1504394064
    nsecs: 392625290
  frame_id: ''
axes: [-0.30229756236076355, 1.0, -0.0, -0.0, 0.0, 0.0]
buttons: [0, 0, 0, 0, 1, 0, 0, 0, 0, 0, 0, 0]
---
header: 
  seq: 52495
  stamp: 
    secs: 1504394064
    nsecs: 392625290
  frame_id: ''
axes: [-0.30229756236076355, 1.0, -0.0, -0.0, 0.0, 0.0]
buttons: [0, 0, 0, 0, 1, 0, 0, 0, 0, 0, 0, 0]
---
header: 
  seq: 52496
  stamp: 
    secs: 1504394064
    nsecs: 392625290
  frame_id: ''
axes: [-0.30229756236076355, 1.0, -0.0, -0.0, 0.0, 0.0]
buttons: [0, 0, 0, 0, 1, 0, 0, 0, 0, 0, 0, 0]
---
header: 
  seq: 52497
  stamp: 
    secs: 1504394064
    nsecs: 392625290
  frame_id: ''
axes: [-0.30229756236076355, 1.0, -0.0, -0.0, 0.0, 0.0]
buttons: [0, 0, 0, 0, 1, 0, 0, 0, 0, 0, 0, 0]
---
header: 
  seq: 52498
  stamp: 
    secs: 1504394064
    nsecs: 392625290
  frame_id: ''
axes: [-0.30229756236076355, 1.0, -0.0, -0.0, 0.0, 0.0]
buttons: [0, 0, 0, 0, 1, 0, 0, 0, 0, 0, 0, 0]
---
header: 
  seq: 52499
  stamp: 
    secs: 1504394064
    nsecs: 392625290
  frame_id: ''
axes: [-0.30229756236076355, 1.0, -0.0, -0.0, 0.0, 0.0]
buttons: [0, 0, 0, 0, 1, 0, 0, 0, 0, 0, 0, 0]
---
header: 
  seq: 52500
  stamp: 
    secs: 1504394064
    nsecs: 392625290
  frame_id: ''
axes: [-0.30229756236076355, 1.0, -0.0, -0.0, 0.0, 0.0]
buttons: [0, 0, 0, 0, 1, 0, 0, 0, 0, 0, 0, 0]
---
header: 
  seq: 52501
  stamp: 
    secs: 1504394064
    nsecs: 392625290
  frame_id: ''
axes: [-0.30229756236076355, 1.0, -0.0, -0.0, 0.0, 0.0]
buttons: [0, 0, 0, 0, 1, 0, 0, 0, 0, 0, 0, 0]
---
header: 
  seq: 52502
  stamp: 
    secs: 1504394065
    nsecs: 234573788
  frame_id: ''
axes: [-0.30229756236076355, 1.0, -0.0, -0.1773258000612259, 0.0, 0.0]
buttons: [0, 0, 0, 0, 1, 0, 0, 0, 0, 0, 0, 0]
---
header: 
  seq: 52503
  stamp: 
    secs: 1504394065
    nsecs: 246604771
  frame_id: ''
axes: [-0.30229756236076355, 1.0, -0.02112651616334915, -0.43768876791000366, 0.0, 0.0]
buttons: [0, 0, 0, 0, 1, 0, 0, 0, 0, 0, 0, 0]
---
header: 
  seq: 52504
  stamp: 
    secs: 1504394065
    nsecs: 258612211
  frame_id: ''
axes: [-0.30229756236076355, 1.0, -0.08361238986253738, -0.708440363407135, 0.0, 0.0]
buttons: [0, 0, 0, 0, 1, 0, 0, 0, 0, 0, 0, 0]
---
header: 
  seq: 52505
  stamp: 
    secs: 1504394065
    nsecs: 270693766
  frame_id: ''
axes: [-0.30229756236076355, 1.0, -0.15651771426200867, -0.9791918992996216, 0.0, 0.0]
buttons: [0, 0, 0, 0, 1, 0, 0, 0, 0, 0, 0, 0]
---
header: 
  seq: 52506
  stamp: 
    secs: 1504394065
    nsecs: 282604385
  frame_id: ''
axes: [-0.30229756236076355, 1.0, -0.22939221560955048, -1.0, 0.0, 0.0]
buttons: [0, 0, 0, 0, 1, 0, 0, 0, 0, 0, 0, 0]
---
header: 
  seq: 52507
  stamp: 
    secs: 1504394065
    nsecs: 298586268
  frame_id: ''
axes: [-0.30229756236076355, 1.0, -0.2502311170101166, -1.0, 0.0, 0.0]
buttons: [0, 0, 0, 0, 1, 0, 0, 0, 0, 0, 0, 0]
---
header: 
  seq: 52508
  stamp: 
    secs: 1504394065
    nsecs: 298586268
  frame_id: ''
axes: [-0.30229756236076355, 1.0, -0.2502311170101166, -1.0, 0.0, 0.0]
buttons: [0, 0, 0, 0, 1, 0, 0, 0, 0, 0, 0, 0]
---
header: 
  seq: 52509
  stamp: 
    secs: 1504394065
    nsecs: 298586268
  frame_id: ''
axes: [-0.30229756236076355, 1.0, -0.2502311170101166, -1.0, 0.0, 0.0]
buttons: [0, 0, 0, 0, 1, 0, 0, 0, 0, 0, 0, 0]
---
header: 
  seq: 52510
  stamp: 
    secs: 1504394065
    nsecs: 426600915
  frame_id: ''
axes: [-0.30229756236076355, 1.0, -0.2502311170101166, -0.8854784965515137, 0.0, 0.0]
buttons: [0, 0, 0, 0, 1, 0, 0, 0, 0, 0, 0, 0]
---
header: 
  seq: 52511
  stamp: 
    secs: 1504394065
    nsecs: 438706011
  frame_id: ''
axes: [-0.30229756236076355, 1.0, -0.198164701461792, -0.698020875453949, 0.0, 0.0]
buttons: [0, 0, 0, 0, 1, 0, 0, 0, 0, 0, 0, 0]
---
header: 
  seq: 52512
  stamp: 
    secs: 1504394065
    nsecs: 450652775
  frame_id: ''
axes: [-0.30229756236076355, 1.0, -0.13567881286144257, -0.5938880443572998, 0.0, 0.0]
buttons: [0, 0, 0, 0, 1, 0, 0, 0, 0, 0, 0, 0]
---
header: 
  seq: 52513
  stamp: 
    secs: 1504394065
    nsecs: 462673601
  frame_id: ''
axes: [-0.30229756236076355, 1.0, -0.11483991891145706, -0.48975518345832825, 0.0, 0.0]
buttons: [0, 0, 0, 0, 1, 0, 0, 0, 0, 0, 0, 0]
---
header: 
  seq: 52514
  stamp: 
    secs: 1504394065
    nsecs: 474598699
  frame_id: ''
axes: [-0.30229756236076355, 1.0, -0.10442046821117401, -0.4584968388080597, 0.0, 0.0]
buttons: [0, 0, 0, 0, 1, 0, 0, 0, 0, 0, 0, 0]
---
header: 
  seq: 52515
  stamp: 
    secs: 1504394065
    nsecs: 490685998
  frame_id: ''
axes: [-0.35436397790908813, 1.0, -0.10442046821117401, -0.43768876791000366, 0.0, 0.0]
buttons: [0, 0, 0, 0, 1, 0, 0, 0, 0, 0, 0, 0]
---
header: 
  seq: 52516
  stamp: 
    secs: 1504394065
    nsecs: 502576304
  frame_id: ''
axes: [-0.35436397790908813, 1.0, -0.08361238986253738, -0.41684985160827637, 0.0, 0.0]
buttons: [0, 0, 0, 0, 1, 0, 0, 0, 0, 0, 0, 0]
---
header: 
  seq: 52517
  stamp: 
    secs: 1504394065
    nsecs: 514688380
  frame_id: ''
axes: [-0.35436397790908813, 1.0, -0.06277348846197128, -0.3647834360599518, 0.0, 0.0]
buttons: [0, 0, 0, 0, 1, 0, 0, 0, 0, 0, 0, 0]
---
header: 
  seq: 52518
  stamp: 
    secs: 1504394065
    nsecs: 526764518
  frame_id: ''
axes: [-0.35436397790908813, 1.0, -0.02112651616334915, -0.2710391879081726, 0.0, 0.0]
buttons: [0, 0, 0, 0, 1, 0, 0, 0, 0, 0, 0, 0]
---
header: 
  seq: 52519
  stamp: 
    secs: 1504394065
    nsecs: 530608649
  frame_id: ''
axes: [-0.35436397790908813, 1.0, -0.0, -0.0, 0.0, 0.0]
buttons: [0, 0, 0, 0, 1, 0, 0, 0, 0, 0, 0, 0]
---
header: 
  seq: 52520
  stamp: 
    secs: 1504394065
    nsecs: 530608649
  frame_id: ''
axes: [-0.35436397790908813, 1.0, -0.0, -0.0, 0.0, 0.0]
buttons: [0, 0, 0, 0, 1, 0, 0, 0, 0, 0, 0, 0]
---
header: 
  seq: 52521
  stamp: 
    secs: 1504394065
    nsecs: 530608649
  frame_id: ''
axes: [-0.35436397790908813, 1.0, -0.0, -0.0, 0.0, 0.0]
buttons: [0, 0, 0, 0, 1, 0, 0, 0, 0, 0, 0, 0]
---
header: 
  seq: 52522
  stamp: 
    secs: 1504394065
    nsecs: 690673467
  frame_id: ''
axes: [-0.35436397790908813, 1.0, -0.0, -0.28145864605903625, 0.0, 0.0]
buttons: [0, 0, 0, 0, 1, 0, 0, 0, 0, 0, 0, 0]
---
header: 
  seq: 52523
  stamp: 
    secs: 1504394065
    nsecs: 702577159
  frame_id: ''
axes: [-0.35436397790908813, 1.0, -0.02112651616334915, -0.656373918056488, 0.0, 0.0]
buttons: [0, 0, 0, 0, 1, 0, 0, 0, 0, 0, 0, 0]
---
header: 
  seq: 52524
  stamp: 
    secs: 1504394065
    nsecs: 714707515
  frame_id: ''
axes: [-0.35436397790908813, 1.0, -0.198164701461792, -1.0, 0.0, 0.0]
buttons: [0, 0, 0, 0, 1, 0, 0, 0, 0, 0, 0, 0]
---
header: 
  seq: 52525
  stamp: 
    secs: 1504394065
    nsecs: 726594801
  frame_id: ''
axes: [-0.35436397790908813, 1.0, -0.2502311170101166, -1.0, 0.0, 0.0]
buttons: [0, 0, 0, 0, 1, 0, 0, 0, 0, 0, 0, 0]
---
header: 
  seq: 52526
  stamp: 
    secs: 1504394065
    nsecs: 734612279
  frame_id: ''
axes: [-0.35436397790908813, 1.0, -0.30229756236076355, -1.0, 0.0, 0.0]
buttons: [0, 0, 0, 0, 1, 0, 0, 0, 0, 0, 0, 0]
---
header: 
  seq: 52527
  stamp: 
    secs: 1504394065
    nsecs: 750604787
  frame_id: ''
axes: [-0.35436397790908813, 1.0, -0.3647834360599518, -1.0, 0.0, 0.0]
buttons: [0, 0, 0, 0, 1, 0, 0, 0, 0, 0, 0, 0]
---
header: 
  seq: 52528
  stamp: 
    secs: 1504394065
    nsecs: 762671498
  frame_id: ''
axes: [-0.35436397790908813, 1.0, -0.39601096510887146, -1.0, 0.0, 0.0]
buttons: [0, 0, 0, 0, 1, 0, 0, 0, 0, 0, 0, 0]
---
header: 
  seq: 52529
  stamp: 
    secs: 1504394065
    nsecs: 762671498
  frame_id: ''
axes: [-0.35436397790908813, 1.0, -0.39601096510887146, -1.0, 0.0, 0.0]
buttons: [0, 0, 0, 0, 1, 0, 0, 0, 0, 0, 0, 0]
---
header: 
  seq: 52530
  stamp: 
    secs: 1504394065
    nsecs: 834629998
  frame_id: ''
axes: [-0.37520286440849304, 1.0, -0.39601096510887146, -1.0, 0.0, 0.0]
buttons: [0, 0, 0, 0, 1, 0, 0, 0, 0, 0, 0, 0]
---
header: 
  seq: 52531
  stamp: 
    secs: 1504394065
    nsecs: 859592162
  frame_id: ''
axes: [-0.3855915069580078, 1.0, -0.39601096510887146, -1.0, 0.0, 0.0]
buttons: [0, 0, 0, 0, 1, 0, 0, 0, 0, 0, 0, 0]
---
header: 
  seq: 52532
  stamp: 
    secs: 1504394065
    nsecs: 859592162
  frame_id: ''
axes: [-0.3855915069580078, 1.0, -0.39601096510887146, -1.0, 0.0, 0.0]
buttons: [0, 0, 0, 0, 1, 0, 0, 0, 0, 0, 0, 0]
---
header: 
  seq: 52533
  stamp: 
    secs: 1504394065
    nsecs: 859592162
  frame_id: ''
axes: [-0.3855915069580078, 1.0, -0.39601096510887146, -1.0, 0.0, 0.0]
buttons: [0, 0, 0, 0, 1, 0, 0, 0, 0, 0, 0, 0]
---
header: 
  seq: 52534
  stamp: 
    secs: 1504394065
    nsecs: 859592162
  frame_id: ''
axes: [-0.3855915069580078, 1.0, -0.39601096510887146, -1.0, 0.0, 0.0]
buttons: [0, 0, 0, 0, 1, 0, 0, 0, 0, 0, 0, 0]
---
header: 
  seq: 52535
  stamp: 
    secs: 1504394066
    nsecs:  34607728
  frame_id: ''
axes: [-0.3855915069580078, 1.0, -0.30229756236076355, -1.0, 0.0, 0.0]
buttons: [0, 0, 0, 0, 1, 0, 0, 0, 0, 0, 0, 0]
---
header: 
  seq: 52536
  stamp: 
    secs: 1504394066
    nsecs:  46810271
  frame_id: ''
axes: [-0.3855915069580078, 1.0, -0.11483991891145706, -0.6043074727058411, 0.0, 0.0]
buttons: [0, 0, 0, 0, 1, 0, 0, 0, 0, 0, 0, 0]
---
header: 
  seq: 52537
  stamp: 
    secs: 1504394066
    nsecs:  59092501
  frame_id: ''
axes: [-0.3855915069580078, 1.0, -0.0, 0.11487074196338654, 0.0, 0.0]
buttons: [0, 0, 0, 0, 1, 0, 0, 0, 0, 0, 0, 0]
---
header: 
  seq: 52538
  stamp: 
    secs: 1504394066
    nsecs:  62815331
  frame_id: ''
axes: [-0.3855915069580078, 1.0, -0.0, -0.0, 0.0, 0.0]
buttons: [0, 0, 0, 0, 1, 0, 0, 0, 0, 0, 0, 0]
---
header: 
  seq: 52539
  stamp: 
    secs: 1504394066
    nsecs:  62815331
  frame_id: ''
axes: [-0.3855915069580078, 1.0, -0.0, -0.0, 0.0, 0.0]
buttons: [0, 0, 0, 0, 1, 0, 0, 0, 0, 0, 0, 0]
---
header: 
  seq: 52540
  stamp: 
    secs: 1504394066
    nsecs:  62815331
  frame_id: ''
axes: [-0.3855915069580078, 1.0, -0.0, -0.0, 0.0, 0.0]
buttons: [0, 0, 0, 0, 1, 0, 0, 0, 0, 0, 0, 0]
---
header: 
  seq: 52541
  stamp: 
    secs: 1504394066
    nsecs:  62815331
  frame_id: ''
axes: [-0.3855915069580078, 1.0, -0.0, -0.0, 0.0, 0.0]
buttons: [0, 0, 0, 0, 1, 0, 0, 0, 0, 0, 0, 0]
---
header: 
  seq: 52542
  stamp: 
    secs: 1504394066
    nsecs:  62815331
  frame_id: ''
axes: [-0.3855915069580078, 1.0, -0.0, -0.0, 0.0, 0.0]
buttons: [0, 0, 0, 0, 1, 0, 0, 0, 0, 0, 0, 0]
---
header: 
  seq: 52543
  stamp: 
    secs: 1504394066
    nsecs: 322914743
  frame_id: ''
axes: [-0.3855915069580078, 1.0, -0.0, -0.2710391879081726, 0.0, 0.0]
buttons: [0, 0, 0, 0, 1, 0, 0, 0, 0, 0, 0, 0]
---
header: 
  seq: 52544
  stamp: 
    secs: 1504394066
    nsecs: 334597968
  frame_id: ''
axes: [-0.3855915069580078, 1.0, -0.10442046821117401, -0.5105632543563843, 0.0, 0.0]
buttons: [0, 0, 0, 0, 1, 0, 0, 0, 0, 0, 0, 0]
---
header: 
  seq: 52545
  stamp: 
    secs: 1504394066
    nsecs: 346729574
  frame_id: ''
axes: [-0.3855915069580078, 1.0, -0.2502311170101166, -0.8333812952041626, 0.0, 0.0]
buttons: [0, 0, 0, 0, 1, 0, 0, 0, 0, 0, 0, 0]
---
header: 
  seq: 52546
  stamp: 
    secs: 1504394066
    nsecs: 359118626
  frame_id: ''
axes: [-0.3855915069580078, 1.0, -0.39601096510887146, -1.0, 0.0, 0.0]
buttons: [0, 0, 0, 0, 1, 0, 0, 0, 0, 0, 0, 0]
---
header: 
  seq: 52547
  stamp: 
    secs: 1504394066
    nsecs: 362697343
  frame_id: ''
axes: [-0.3855915069580078, 1.0, -0.41684985160827637, -1.0, 0.0, 0.0]
buttons: [0, 0, 0, 0, 1, 0, 0, 0, 0, 0, 0, 0]
---
header: 
  seq: 52548
  stamp: 
    secs: 1504394066
    nsecs: 414602018
  frame_id: ''
axes: [-0.3855915069580078, 1.0, -0.43768876791000366, -1.0, 0.0, 0.0]
buttons: [0, 0, 0, 0, 1, 0, 0, 0, 0, 0, 0, 0]
---
header: 
  seq: 52549
  stamp: 
    secs: 1504394066
    nsecs: 414602018
  frame_id: ''
axes: [-0.3855915069580078, 1.0, -0.43768876791000366, -1.0, 0.0, 0.0]
buttons: [0, 0, 0, 0, 1, 0, 0, 0, 0, 0, 0, 0]
---
header: 
  seq: 52550
  stamp: 
    secs: 1504394066
    nsecs: 414602018
  frame_id: ''
axes: [-0.3855915069580078, 1.0, -0.43768876791000366, -1.0, 0.0, 0.0]
buttons: [0, 0, 0, 0, 1, 0, 0, 0, 0, 0, 0, 0]
---
header: 
  seq: 52551
  stamp: 
    secs: 1504394066
    nsecs: 414602018
  frame_id: ''
axes: [-0.3855915069580078, 1.0, -0.43768876791000366, -1.0, 0.0, 0.0]
buttons: [0, 0, 0, 0, 1, 0, 0, 0, 0, 0, 0, 0]
---
header: 
  seq: 52552
  stamp: 
    secs: 1504394066
    nsecs: 414602018
  frame_id: ''
axes: [-0.3855915069580078, 1.0, -0.43768876791000366, -1.0, 0.0, 0.0]
buttons: [0, 0, 0, 0, 1, 0, 0, 0, 0, 0, 0, 0]
---
header: 
  seq: 52553
  stamp: 
    secs: 1504394066
    nsecs: 414602018
  frame_id: ''
axes: [-0.3855915069580078, 1.0, -0.43768876791000366, -1.0, 0.0, 0.0]
buttons: [0, 0, 0, 0, 1, 0, 0, 0, 0, 0, 0, 0]
---
header: 
  seq: 52554
  stamp: 
    secs: 1504394066
    nsecs: 414602018
  frame_id: ''
axes: [-0.3855915069580078, 1.0, -0.43768876791000366, -1.0, 0.0, 0.0]
buttons: [0, 0, 0, 0, 1, 0, 0, 0, 0, 0, 0, 0]
---
header: 
  seq: 52555
  stamp: 
    secs: 1504394066
    nsecs: 746672794
  frame_id: ''
axes: [-0.3855915069580078, 1.0, -0.3439445197582245, -1.0, 0.0, 0.0]
buttons: [0, 0, 0, 0, 1, 0, 0, 0, 0, 0, 0, 0]
---
header: 
  seq: 52556
  stamp: 
    secs: 1504394066
    nsecs: 758671537
  frame_id: ''
axes: [-0.3855915069580078, 1.0, -0.20858414471149445, -1.0, 0.0, 0.0]
buttons: [0, 0, 0, 0, 1, 0, 0, 0, 0, 0, 0, 0]
---
header: 
  seq: 52557
  stamp: 
    secs: 1504394066
    nsecs: 770727676
  frame_id: ''
axes: [-0.3855915069580078, 1.0, -0.11483991891145706, -1.0, 0.0, 0.0]
buttons: [0, 0, 0, 0, 1, 0, 0, 0, 0, 0, 0, 0]
---
header: 
  seq: 52558
  stamp: 
    secs: 1504394066
    nsecs: 783145634
  frame_id: ''
axes: [-0.3855915069580078, 1.0, -0.02112651616334915, -0.9167060256004333, 0.0, 0.0]
buttons: [0, 0, 0, 0, 1, 0, 0, 0, 0, 0, 0, 0]
---
header: 
  seq: 52559
  stamp: 
    secs: 1504394066
    nsecs: 798605594
  frame_id: ''
axes: [-0.3855915069580078, 1.0, -0.0, 0.11487074196338654, 0.0, 0.0]
buttons: [0, 0, 0, 0, 1, 0, 0, 0, 0, 0, 0, 0]
---
header: 
  seq: 52560
  stamp: 
    secs: 1504394066
    nsecs: 806560573
  frame_id: ''
axes: [-0.3855915069580078, 1.0, -0.0, -0.0, 0.0, 0.0]
buttons: [0, 0, 0, 0, 1, 0, 0, 0, 0, 0, 0, 0]
---
header: 
  seq: 52561
  stamp: 
    secs: 1504394066
    nsecs: 806560573
  frame_id: ''
axes: [-0.3855915069580078, 1.0, -0.0, -0.0, 0.0, 0.0]
buttons: [0, 0, 0, 0, 1, 0, 0, 0, 0, 0, 0, 0]
---
header: 
  seq: 52562
  stamp: 
    secs: 1504394066
    nsecs: 806560573
  frame_id: ''
axes: [-0.3855915069580078, 1.0, -0.0, -0.0, 0.0, 0.0]
buttons: [0, 0, 0, 0, 1, 0, 0, 0, 0, 0, 0, 0]
---
header: 
  seq: 52563
  stamp: 
    secs: 1504394066
    nsecs: 806560573
  frame_id: ''
axes: [-0.3855915069580078, 1.0, -0.0, -0.0, 0.0, 0.0]
buttons: [0, 0, 0, 0, 1, 0, 0, 0, 0, 0, 0, 0]
---
header: 
  seq: 52564
  stamp: 
    secs: 1504394066
    nsecs: 806560573
  frame_id: ''
axes: [-0.3855915069580078, 1.0, -0.0, -0.0, 0.0, 0.0]
buttons: [0, 0, 0, 0, 1, 0, 0, 0, 0, 0, 0, 0]
---
header: 
  seq: 52565
  stamp: 
    secs: 1504394066
    nsecs: 806560573
  frame_id: ''
axes: [-0.3855915069580078, 1.0, -0.0, -0.0, 0.0, 0.0]
buttons: [0, 0, 0, 0, 1, 0, 0, 0, 0, 0, 0, 0]
---
header: 
  seq: 52566
  stamp: 
    secs: 1504394066
    nsecs: 806560573
  frame_id: ''
axes: [-0.3855915069580078, 1.0, -0.0, -0.0, 0.0, 0.0]
buttons: [0, 0, 0, 0, 1, 0, 0, 0, 0, 0, 0, 0]
---
header: 
  seq: 52567
  stamp: 
    secs: 1504394066
    nsecs: 806560573
  frame_id: ''
axes: [-0.3855915069580078, 1.0, -0.0, -0.0, 0.0, 0.0]
buttons: [0, 0, 0, 0, 1, 0, 0, 0, 0, 0, 0, 0]
---
header: 
  seq: 52568
  stamp: 
    secs: 1504394066
    nsecs: 806560573
  frame_id: ''
axes: [-0.3855915069580078, 1.0, -0.0, -0.0, 0.0, 0.0]
buttons: [0, 0, 0, 0, 1, 0, 0, 0, 0, 0, 0, 0]
---
header: 
  seq: 52569
  stamp: 
    secs: 1504394066
    nsecs: 806560573
  frame_id: ''
axes: [-0.3855915069580078, 1.0, -0.0, -0.0, 0.0, 0.0]
buttons: [0, 0, 0, 0, 1, 0, 0, 0, 0, 0, 0, 0]
---
header: 
  seq: 52570
  stamp: 
    secs: 1504394066
    nsecs: 806560573
  frame_id: ''
axes: [-0.3855915069580078, 1.0, -0.0, -0.0, 0.0, 0.0]
buttons: [0, 0, 0, 0, 1, 0, 0, 0, 0, 0, 0, 0]
---
header: 
  seq: 52571
  stamp: 
    secs: 1504394067
    nsecs: 334746979
  frame_id: ''
axes: [-0.3855915069580078, 1.0, -0.0, 0.0940626710653305, 0.0, 0.0]
buttons: [0, 0, 0, 0, 1, 0, 0, 0, 0, 0, 0, 0]
---
header: 
  seq: 52572
  stamp: 
    secs: 1504394067
    nsecs: 346577026
  frame_id: ''
axes: [-0.3855915069580078, 1.0, -0.0, 0.27107003331184387, 0.0, 0.0]
buttons: [0, 0, 0, 0, 1, 0, 0, 0, 0, 0, 0, 0]
---
header: 
  seq: 52573
  stamp: 
    secs: 1504394067
    nsecs: 358681757
  frame_id: ''
axes: [-0.3855915069580078, 1.0, -0.0, 0.5418524146080017, 0.0, 0.0]
buttons: [0, 0, 0, 0, 1, 0, 0, 0, 0, 0, 0, 0]
---
header: 
  seq: 52574
  stamp: 
    secs: 1504394067
    nsecs: 370643001
  frame_id: ''
axes: [-0.3855915069580078, 1.0, 0.0940626710653305, 0.7605375647544861, 0.0, 0.0]
buttons: [0, 0, 0, 0, 1, 0, 0, 0, 0, 0, 0, 0]
---
header: 
  seq: 52575
  stamp: 
    secs: 1504394067
    nsecs: 382693670
  frame_id: ''
axes: [-0.42726930975914, 1.0, 0.2190036028623581, 1.0, 0.0, 0.0]
buttons: [0, 0, 0, 0, 1, 0, 0, 0, 0, 0, 0, 0]
---
header: 
  seq: 52576
  stamp: 
    secs: 1504394067
    nsecs: 387340971
  frame_id: ''
axes: [-0.44807738065719604, 1.0, 0.25026196241378784, 1.0, 0.0, 0.0]
buttons: [0, 0, 0, 0, 1, 0, 0, 0, 0, 0, 0, 0]
---
header: 
  seq: 52577
  stamp: 
    secs: 1504394067
    nsecs: 406558241
  frame_id: ''
axes: [-0.4793357253074646, 1.0, 0.25026196241378784, 1.0, 0.0, 0.0]
buttons: [0, 0, 0, 0, 1, 0, 0, 0, 0, 0, 0, 0]
---
header: 
  seq: 52578
  stamp: 
    secs: 1504394067
    nsecs: 414672957
  frame_id: ''
axes: [-0.500143826007843, 1.0, 0.25026196241378784, 1.0, 0.0, 0.0]
buttons: [0, 0, 0, 0, 1, 0, 0, 0, 0, 0, 0, 0]
---
header: 
  seq: 52579
  stamp: 
    secs: 1504394067
    nsecs: 414672957
  frame_id: ''
axes: [-0.500143826007843, 1.0, 0.25026196241378784, 1.0, 0.0, 0.0]
buttons: [0, 0, 0, 0, 1, 0, 0, 0, 0, 0, 0, 0]
---
header: 
  seq: 52580
  stamp: 
    secs: 1504394067
    nsecs: 414672957
  frame_id: ''
axes: [-0.500143826007843, 1.0, 0.25026196241378784, 1.0, 0.0, 0.0]
buttons: [0, 0, 0, 0, 1, 0, 0, 0, 0, 0, 0, 0]
---
header: 
  seq: 52581
  stamp: 
    secs: 1504394067
    nsecs: 414672957
  frame_id: ''
axes: [-0.500143826007843, 1.0, 0.25026196241378784, 1.0, 0.0, 0.0]
buttons: [0, 0, 0, 0, 1, 0, 0, 0, 0, 0, 0, 0]
---
header: 
  seq: 52582
  stamp: 
    secs: 1504394067
    nsecs: 414672957
  frame_id: ''
axes: [-0.500143826007843, 1.0, 0.25026196241378784, 1.0, 0.0, 0.0]
buttons: [0, 0, 0, 0, 1, 0, 0, 0, 0, 0, 0, 0]
---
header: 
  seq: 52583
  stamp: 
    secs: 1504394067
    nsecs: 414672957
  frame_id: ''
axes: [-0.500143826007843, 1.0, 0.25026196241378784, 1.0, 0.0, 0.0]
buttons: [0, 0, 0, 0, 1, 0, 0, 0, 0, 0, 0, 0]
---
header: 
  seq: 52584
  stamp: 
    secs: 1504394067
    nsecs: 414672957
  frame_id: ''
axes: [-0.500143826007843, 1.0, 0.25026196241378784, 1.0, 0.0, 0.0]
buttons: [0, 0, 0, 0, 1, 0, 0, 0, 0, 0, 0, 0]
---
header: 
  seq: 52585
  stamp: 
    secs: 1504394067
    nsecs: 414672957
  frame_id: ''
axes: [-0.500143826007843, 1.0, 0.25026196241378784, 1.0, 0.0, 0.0]
buttons: [0, 0, 0, 0, 1, 0, 0, 0, 0, 0, 0, 0]
---
header: 
  seq: 52586
  stamp: 
    secs: 1504394067
    nsecs: 414672957
  frame_id: ''
axes: [-0.500143826007843, 1.0, 0.25026196241378784, 1.0, 0.0, 0.0]
buttons: [0, 0, 0, 0, 1, 0, 0, 0, 0, 0, 0, 0]
---
header: 
  seq: 52587
  stamp: 
    secs: 1504394067
    nsecs: 414672957
  frame_id: ''
axes: [-0.500143826007843, 1.0, 0.25026196241378784, 1.0, 0.0, 0.0]
buttons: [0, 0, 0, 0, 1, 0, 0, 0, 0, 0, 0, 0]
---
header: 
  seq: 52588
  stamp: 
    secs: 1504394067
    nsecs: 414672957
  frame_id: ''
axes: [-0.500143826007843, 1.0, 0.25026196241378784, 1.0, 0.0, 0.0]
buttons: [0, 0, 0, 0, 1, 0, 0, 0, 0, 0, 0, 0]
---
header: 
  seq: 52589
  stamp: 
    secs: 1504394067
    nsecs: 414672957
  frame_id: ''
axes: [-0.500143826007843, 1.0, 0.25026196241378784, 1.0, 0.0, 0.0]
buttons: [0, 0, 0, 0, 1, 0, 0, 0, 0, 0, 0, 0]
---
header: 
  seq: 52590
  stamp: 
    secs: 1504394067
    nsecs: 414672957
  frame_id: ''
axes: [-0.500143826007843, 1.0, 0.25026196241378784, 1.0, 0.0, 0.0]
buttons: [0, 0, 0, 0, 1, 0, 0, 0, 0, 0, 0, 0]
---
header: 
  seq: 52591
  stamp: 
    secs: 1504394067
    nsecs: 414672957
  frame_id: ''
axes: [-0.500143826007843, 1.0, 0.25026196241378784, 1.0, 0.0, 0.0]
buttons: [0, 0, 0, 0, 1, 0, 0, 0, 0, 0, 0, 0]
---
header: 
  seq: 52592
  stamp: 
    secs: 1504394067
    nsecs: 414672957
  frame_id: ''
axes: [-0.500143826007843, 1.0, 0.25026196241378784, 1.0, 0.0, 0.0]
buttons: [0, 0, 0, 0, 1, 0, 0, 0, 0, 0, 0, 0]
---
header: 
  seq: 52593
  stamp: 
    secs: 1504394067
    nsecs: 414672957
  frame_id: ''
axes: [-0.500143826007843, 1.0, 0.25026196241378784, 1.0, 0.0, 0.0]
buttons: [0, 0, 0, 0, 1, 0, 0, 0, 0, 0, 0, 0]
---
header: 
  seq: 52594
  stamp: 
    secs: 1504394067
    nsecs: 414672957
  frame_id: ''
axes: [-0.500143826007843, 1.0, 0.25026196241378784, 1.0, 0.0, 0.0]
buttons: [0, 0, 0, 0, 1, 0, 0, 0, 0, 0, 0, 0]
---
header: 
  seq: 52595
  stamp: 
    secs: 1504394067
    nsecs: 414672957
  frame_id: ''
axes: [-0.500143826007843, 1.0, 0.25026196241378784, 1.0, 0.0, 0.0]
buttons: [0, 0, 0, 0, 1, 0, 0, 0, 0, 0, 0, 0]
---
header: 
  seq: 52596
  stamp: 
    secs: 1504394067
    nsecs: 414672957
  frame_id: ''
axes: [-0.500143826007843, 1.0, 0.25026196241378784, 1.0, 0.0, 0.0]
buttons: [0, 0, 0, 0, 1, 0, 0, 0, 0, 0, 0, 0]
---
header: 
  seq: 52597
  stamp: 
    secs: 1504394067
    nsecs: 414672957
  frame_id: ''
axes: [-0.500143826007843, 1.0, 0.25026196241378784, 1.0, 0.0, 0.0]
buttons: [0, 0, 0, 0, 1, 0, 0, 0, 0, 0, 0, 0]
---
header: 
  seq: 52598
  stamp: 
    secs: 1504394067
    nsecs: 414672957
  frame_id: ''
axes: [-0.500143826007843, 1.0, 0.25026196241378784, 1.0, 0.0, 0.0]
buttons: [0, 0, 0, 0, 1, 0, 0, 0, 0, 0, 0, 0]
---
header: 
  seq: 52599
  stamp: 
    secs: 1504394067
    nsecs: 414672957
  frame_id: ''
axes: [-0.500143826007843, 1.0, 0.25026196241378784, 1.0, 0.0, 0.0]
buttons: [0, 0, 0, 0, 1, 0, 0, 0, 0, 0, 0, 0]
---
header: 
  seq: 52600
  stamp: 
    secs: 1504394067
    nsecs: 414672957
  frame_id: ''
axes: [-0.500143826007843, 1.0, 0.25026196241378784, 1.0, 0.0, 0.0]
buttons: [0, 0, 0, 0, 1, 0, 0, 0, 0, 0, 0, 0]
---
header: 
  seq: 52601
  stamp: 
    secs: 1504394067
    nsecs: 414672957
  frame_id: ''
axes: [-0.500143826007843, 1.0, 0.25026196241378784, 1.0, 0.0, 0.0]
buttons: [0, 0, 0, 0, 1, 0, 0, 0, 0, 0, 0, 0]
---
header: 
  seq: 52602
  stamp: 
    secs: 1504394067
    nsecs: 414672957
  frame_id: ''
axes: [-0.500143826007843, 1.0, 0.25026196241378784, 1.0, 0.0, 0.0]
buttons: [0, 0, 0, 0, 1, 0, 0, 0, 0, 0, 0, 0]
---
header: 
  seq: 52603
  stamp: 
    secs: 1504394067
    nsecs: 414672957
  frame_id: ''
axes: [-0.500143826007843, 1.0, 0.25026196241378784, 1.0, 0.0, 0.0]
buttons: [0, 0, 0, 0, 1, 0, 0, 0, 0, 0, 0, 0]
---
header: 
  seq: 52604
  stamp: 
    secs: 1504394067
    nsecs: 414672957
  frame_id: ''
axes: [-0.500143826007843, 1.0, 0.25026196241378784, 1.0, 0.0, 0.0]
buttons: [0, 0, 0, 0, 1, 0, 0, 0, 0, 0, 0, 0]
---
header: 
  seq: 52605
  stamp: 
    secs: 1504394067
    nsecs: 414672957
  frame_id: ''
axes: [-0.500143826007843, 1.0, 0.25026196241378784, 1.0, 0.0, 0.0]
buttons: [0, 0, 0, 0, 1, 0, 0, 0, 0, 0, 0, 0]
---
header: 
  seq: 52606
  stamp: 
    secs: 1504394067
    nsecs: 414672957
  frame_id: ''
axes: [-0.500143826007843, 1.0, 0.25026196241378784, 1.0, 0.0, 0.0]
buttons: [0, 0, 0, 0, 1, 0, 0, 0, 0, 0, 0, 0]
---
header: 
  seq: 52607
  stamp: 
    secs: 1504394067
    nsecs: 414672957
  frame_id: ''
axes: [-0.500143826007843, 1.0, 0.25026196241378784, 1.0, 0.0, 0.0]
buttons: [0, 0, 0, 0, 1, 0, 0, 0, 0, 0, 0, 0]
---
header: 
  seq: 52608
  stamp: 
    secs: 1504394068
    nsecs: 902695050
  frame_id: ''
axes: [-0.500143826007843, 1.0, 0.19819551706314087, 0.8438315391540527, 0.0, 0.0]
buttons: [0, 0, 0, 0, 1, 0, 0, 0, 0, 0, 0, 0]
---
header: 
  seq: 52609
  stamp: 
    secs: 1504394068
    nsecs: 914801292
  frame_id: ''
axes: [-0.500143826007843, 1.0, 0.15654854476451874, 0.7396987080574036, 0.0, 0.0]
buttons: [0, 0, 0, 0, 1, 0, 0, 0, 0, 0, 0, 0]
---
header: 
  seq: 52610
  stamp: 
    secs: 1504394068
    nsecs: 926654359
  frame_id: ''
axes: [-0.500143826007843, 1.0, 0.11487074196338654, 0.6667933464050293, 0.0, 0.0]
buttons: [0, 0, 0, 0, 1, 0, 0, 0, 0, 0, 0, 0]
---
header: 
  seq: 52611
  stamp: 
    secs: 1504394068
    nsecs: 938628936
  frame_id: ''
axes: [-0.500143826007843, 1.0, 0.08364322036504745, 0.6147269606590271, 0.0, 0.0]
buttons: [0, 0, 0, 0, 1, 0, 0, 0, 0, 0, 0, 0]
---
header: 
  seq: 52612
  stamp: 
    secs: 1504394068
    nsecs: 950644606
  frame_id: ''
axes: [-0.500143826007843, 1.0, 0.06280431896448135, 0.5730799436569214, 0.0, 0.0]
buttons: [0, 0, 0, 0, 1, 0, 0, 0, 0, 0, 0, 0]
---
header: 
  seq: 52613
  stamp: 
    secs: 1504394068
    nsecs: 962553766
  frame_id: ''
axes: [-0.500143826007843, 1.0, 0.0523848682641983, 0.5105940699577332, 0.0, 0.0]
buttons: [0, 0, 0, 0, 1, 0, 0, 0, 0, 0, 0, 0]
---
header: 
  seq: 52614
  stamp: 
    secs: 1504394068
    nsecs: 974595061
  frame_id: ''
axes: [-0.500143826007843, 1.0, 0.0523848682641983, 0.3856223225593567, 0.0, 0.0]
buttons: [0, 0, 0, 0, 1, 0, 0, 0, 0, 0, 0, 0]
---
header: 
  seq: 52615
  stamp: 
    secs: 1504394068
    nsecs: 986609950
  frame_id: ''
axes: [-0.500143826007843, 1.0, 0.031576793640851974, 0.25026196241378784, 0.0, 0.0]
buttons: [0, 0, 0, 0, 1, 0, 0, 0, 0, 0, 0, 0]
---
header: 
  seq: 52616
  stamp: 
    secs: 1504394068
    nsecs: 998695150
  frame_id: ''
axes: [-0.500143826007843, 1.0, 0.021157342940568924, 0.15654854476451874, 0.0, 0.0]
buttons: [0, 0, 0, 0, 1, 0, 0, 0, 0, 0, 0, 0]
---
header: 
  seq: 52617
  stamp: 
    secs: 1504394069
    nsecs:  10627279
  frame_id: ''
axes: [-0.500143826007843, 1.0, -0.0, 0.06280431896448135, 0.0, 0.0]
buttons: [0, 0, 0, 0, 1, 0, 0, 0, 0, 0, 0, 0]
---
header: 
  seq: 52618
  stamp: 
    secs: 1504394069
    nsecs:  22577481
  frame_id: ''
axes: [-0.500143826007843, 1.0, -0.0, -0.0, 0.0, 0.0]
buttons: [0, 0, 0, 0, 1, 0, 0, 0, 0, 0, 0, 0]
---
header: 
  seq: 52619
  stamp: 
    secs: 1504394069
    nsecs:  22577481
  frame_id: ''
axes: [-0.500143826007843, 1.0, -0.0, -0.0, 0.0, 0.0]
buttons: [0, 0, 0, 0, 1, 0, 0, 0, 0, 0, 0, 0]
---
header: 
  seq: 52620
  stamp: 
    secs: 1504394069
    nsecs:  22577481
  frame_id: ''
axes: [-0.500143826007843, 1.0, -0.0, -0.0, 0.0, 0.0]
buttons: [0, 0, 0, 0, 1, 0, 0, 0, 0, 0, 0, 0]
---
header: 
  seq: 52621
  stamp: 
    secs: 1504394069
    nsecs: 154769797
  frame_id: ''
axes: [-0.500143826007843, 1.0, -0.0, -0.28145864605903625, 0.0, 0.0]
buttons: [0, 0, 0, 0, 1, 0, 0, 0, 0, 0, 0, 0]
---
header: 
  seq: 52622
  stamp: 
    secs: 1504394069
    nsecs: 166545625
  frame_id: ''
axes: [-0.500143826007843, 1.0, -0.08361238986253738, -0.6251155734062195, 0.0, 0.0]
buttons: [0, 0, 0, 0, 1, 0, 0, 0, 0, 0, 0, 0]
---
header: 
  seq: 52623
  stamp: 
    secs: 1504394069
    nsecs: 178640513
  frame_id: ''
axes: [-0.500143826007843, 1.0, -0.1773258000612259, -0.9687724709510803, 0.0, 0.0]
buttons: [0, 0, 0, 0, 1, 0, 0, 0, 0, 0, 0, 0]
---
header: 
  seq: 52624
  stamp: 
    secs: 1504394069
    nsecs: 190579569
  frame_id: ''
axes: [-0.500143826007843, 1.0, -0.2710391879081726, -1.0, 0.0, 0.0]
buttons: [0, 0, 0, 0, 1, 0, 0, 0, 0, 0, 0, 0]
---
header: 
  seq: 52625
  stamp: 
    secs: 1504394069
    nsecs: 206548171
  frame_id: ''
axes: [-0.500143826007843, 1.0, -0.2918781042098999, -1.0, 0.0, 0.0]
buttons: [0, 0, 0, 0, 1, 0, 0, 0, 0, 0, 0, 0]
---
header: 
  seq: 52626
  stamp: 
    secs: 1504394069
    nsecs: 226671578
  frame_id: ''
axes: [-0.500143826007843, 1.0, -0.30229756236076355, -1.0, 0.0, 0.0]
buttons: [0, 0, 0, 0, 1, 0, 0, 0, 0, 0, 0, 0]
---
header: 
  seq: 52627
  stamp: 
    secs: 1504394069
    nsecs: 226671578
  frame_id: ''
axes: [-0.500143826007843, 1.0, -0.30229756236076355, -1.0, 0.0, 0.0]
buttons: [0, 0, 0, 0, 1, 0, 0, 0, 0, 0, 0, 0]
---
header: 
  seq: 52628
  stamp: 
    secs: 1504394069
    nsecs: 310841996
  frame_id: ''
axes: [-0.500143826007843, 1.0, -0.2502311170101166, -1.0, 0.0, 0.0]
buttons: [0, 0, 0, 0, 1, 0, 0, 0, 0, 0, 0, 0]
---
header: 
  seq: 52629
  stamp: 
    secs: 1504394069
    nsecs: 330661292
  frame_id: ''
axes: [-0.5209826827049255, 1.0, -0.0, -0.5730491280555725, 0.0, 0.0]
buttons: [0, 0, 0, 0, 1, 0, 0, 0, 0, 0, 0, 0]
---
header: 
  seq: 52630
  stamp: 
    secs: 1504394069
    nsecs: 342721232
  frame_id: ''
axes: [-0.5209826827049255, 1.0, -0.0, 0.021157342940568924, 0.0, 0.0]
buttons: [0, 0, 0, 0, 1, 0, 0, 0, 0, 0, 0, 0]
---
header: 
  seq: 52631
  stamp: 
    secs: 1504394069
    nsecs: 346675154
  frame_id: ''
axes: [-0.5209826827049255, 1.0, -0.0, -0.0, 0.0, 0.0]
buttons: [0, 0, 0, 0, 1, 0, 0, 0, 0, 0, 0, 0]
---
header: 
  seq: 52632
  stamp: 
    secs: 1504394069
    nsecs: 346675154
  frame_id: ''
axes: [-0.5209826827049255, 1.0, -0.0, -0.0, 0.0, 0.0]
buttons: [0, 0, 0, 0, 1, 0, 0, 0, 0, 0, 0, 0]
---
header: 
  seq: 52633
  stamp: 
    secs: 1504394069
    nsecs: 346675154
  frame_id: ''
axes: [-0.5209826827049255, 1.0, -0.0, -0.0, 0.0, 0.0]
buttons: [0, 0, 0, 0, 1, 0, 0, 0, 0, 0, 0, 0]
---
header: 
  seq: 52634
  stamp: 
    secs: 1504394069
    nsecs: 346675154
  frame_id: ''
axes: [-0.5209826827049255, 1.0, -0.0, -0.0, 0.0, 0.0]
buttons: [0, 0, 0, 0, 1, 0, 0, 0, 0, 0, 0, 0]
---
header: 
  seq: 52635
  stamp: 
    secs: 1504394069
    nsecs: 346675154
  frame_id: ''
axes: [-0.5209826827049255, 1.0, -0.0, -0.0, 0.0, 0.0]
buttons: [0, 0, 0, 0, 1, 0, 0, 0, 0, 0, 0, 0]
---
header: 
  seq: 52636
  stamp: 
    secs: 1504394069
    nsecs: 346675154
  frame_id: ''
axes: [-0.5209826827049255, 1.0, -0.0, -0.0, 0.0, 0.0]
buttons: [0, 0, 0, 0, 1, 0, 0, 0, 0, 0, 0, 0]
---
header: 
  seq: 52637
  stamp: 
    secs: 1504394069
    nsecs: 346675154
  frame_id: ''
axes: [-0.5209826827049255, 1.0, -0.0, -0.0, 0.0, 0.0]
buttons: [0, 0, 0, 0, 1, 0, 0, 0, 0, 0, 0, 0]
---
header: 
  seq: 52638
  stamp: 
    secs: 1504394069
    nsecs: 346675154
  frame_id: ''
axes: [-0.5209826827049255, 1.0, -0.0, -0.0, 0.0, 0.0]
buttons: [0, 0, 0, 0, 1, 0, 0, 0, 0, 0, 0, 0]
---
header: 
  seq: 52639
  stamp: 
    secs: 1504394069
    nsecs: 346675154
  frame_id: ''
axes: [-0.5209826827049255, 1.0, -0.0, -0.0, 0.0, 0.0]
buttons: [0, 0, 0, 0, 1, 0, 0, 0, 0, 0, 0, 0]
---
header: 
  seq: 52640
  stamp: 
    secs: 1504394069
    nsecs: 346675154
  frame_id: ''
axes: [-0.5209826827049255, 1.0, -0.0, -0.0, 0.0, 0.0]
buttons: [0, 0, 0, 0, 1, 0, 0, 0, 0, 0, 0, 0]
---
header: 
  seq: 52641
  stamp: 
    secs: 1504394069
    nsecs: 346675154
  frame_id: ''
axes: [-0.5209826827049255, 1.0, -0.0, -0.0, 0.0, 0.0]
buttons: [0, 0, 0, 0, 1, 0, 0, 0, 0, 0, 0, 0]
---
header: 
  seq: 52642
  stamp: 
    secs: 1504394069
    nsecs: 346675154
  frame_id: ''
axes: [-0.5209826827049255, 1.0, -0.0, -0.0, 0.0, 0.0]
buttons: [0, 0, 0, 0, 1, 0, 0, 0, 0, 0, 0, 0]
---
header: 
  seq: 52643
  stamp: 
    secs: 1504394069
    nsecs: 346675154
  frame_id: ''
axes: [-0.5209826827049255, 1.0, -0.0, -0.0, 0.0, 0.0]
buttons: [0, 0, 0, 0, 1, 0, 0, 0, 0, 0, 0, 0]
---
header: 
  seq: 52644
  stamp: 
    secs: 1504394069
    nsecs: 346675154
  frame_id: ''
axes: [-0.5209826827049255, 1.0, -0.0, -0.0, 0.0, 0.0]
buttons: [0, 0, 0, 0, 1, 0, 0, 0, 0, 0, 0, 0]
---
header: 
  seq: 52645
  stamp: 
    secs: 1504394070
    nsecs:  34655391
  frame_id: ''
axes: [-0.5209826827049255, 1.0, -0.0, -0.16690634191036224, 0.0, 0.0]
buttons: [0, 0, 0, 0, 1, 0, 0, 0, 0, 0, 0, 0]
---
header: 
  seq: 52646
  stamp: 
    secs: 1504394070
    nsecs:  46655280
  frame_id: ''
axes: [-0.5209826827049255, 1.0, -0.0, -0.28145864605903625, 0.0, 0.0]
buttons: [0, 0, 0, 0, 1, 0, 0, 0, 0, 0, 0, 0]
---
header: 
  seq: 52647
  stamp: 
    secs: 1504394070
    nsecs:  58971624
  frame_id: ''
axes: [-0.5209826827049255, 1.0, -0.02112651616334915, -0.43768876791000366, 0.0, 0.0]
buttons: [0, 0, 0, 0, 1, 0, 0, 0, 0, 0, 0, 0]
---
header: 
  seq: 52648
  stamp: 
    secs: 1504394070
    nsecs:  70781671
  frame_id: ''
axes: [-0.5209826827049255, 1.0, -0.11483991891145706, -0.656373918056488, 0.0, 0.0]
buttons: [0, 0, 0, 0, 1, 0, 0, 0, 0, 0, 0, 0]
---
header: 
  seq: 52649
  stamp: 
    secs: 1504394070
    nsecs:  82581093
  frame_id: ''
axes: [-0.5209826827049255, 1.0, -0.1773258000612259, -1.0, 0.0, 0.0]
buttons: [0, 0, 0, 0, 1, 0, 0, 0, 0, 0, 0, 0]
---
header: 
  seq: 52650
  stamp: 
    secs: 1504394070
    nsecs:  90564508
  frame_id: ''
axes: [-0.5209826827049255, 1.0, -0.20858414471149445, -1.0, 0.0, 0.0]
buttons: [0, 0, 0, 0, 1, 0, 0, 0, 0, 0, 0, 0]
---
header: 
  seq: 52651
  stamp: 
    secs: 1504394070
    nsecs:  90564508
  frame_id: ''
axes: [-0.5209826827049255, 1.0, -0.20858414471149445, -1.0, 0.0, 0.0]
buttons: [0, 0, 0, 0, 1, 0, 0, 0, 0, 0, 0, 0]
---
header: 
  seq: 52652
  stamp: 
    secs: 1504394070
    nsecs:  90564508
  frame_id: ''
axes: [-0.5209826827049255, 1.0, -0.20858414471149445, -1.0, 0.0, 0.0]
buttons: [0, 0, 0, 0, 1, 0, 0, 0, 0, 0, 0, 0]
---
header: 
  seq: 52653
  stamp: 
    secs: 1504394070
    nsecs:  90564508
  frame_id: ''
axes: [-0.5209826827049255, 1.0, -0.20858414471149445, -1.0, 0.0, 0.0]
buttons: [0, 0, 0, 0, 1, 0, 0, 0, 0, 0, 0, 0]
---
header: 
  seq: 52654
  stamp: 
    secs: 1504394070
    nsecs:  90564508
  frame_id: ''
axes: [-0.5209826827049255, 1.0, -0.20858414471149445, -1.0, 0.0, 0.0]
buttons: [0, 0, 0, 0, 1, 0, 0, 0, 0, 0, 0, 0]
---
header: 
  seq: 52655
  stamp: 
    secs: 1504394070
    nsecs:  90564508
  frame_id: ''
axes: [-0.5209826827049255, 1.0, -0.20858414471149445, -1.0, 0.0, 0.0]
buttons: [0, 0, 0, 0, 1, 0, 0, 0, 0, 0, 0, 0]
---
header: 
  seq: 52656
  stamp: 
    secs: 1504394070
    nsecs:  90564508
  frame_id: ''
axes: [-0.5209826827049255, 1.0, -0.20858414471149445, -1.0, 0.0, 0.0]
buttons: [0, 0, 0, 0, 1, 0, 0, 0, 0, 0, 0, 0]
---
header: 
  seq: 52657
  stamp: 
    secs: 1504394070
    nsecs:  90564508
  frame_id: ''
axes: [-0.5209826827049255, 1.0, -0.20858414471149445, -1.0, 0.0, 0.0]
buttons: [0, 0, 0, 0, 1, 0, 0, 0, 0, 0, 0, 0]
---
header: 
  seq: 52658
  stamp: 
    secs: 1504394070
    nsecs: 474535480
  frame_id: ''
axes: [-0.5209826827049255, 1.0, -0.22939221560955048, -1.0, 0.0, 0.0]
buttons: [0, 0, 0, 0, 1, 0, 0, 0, 0, 0, 0, 0]
---
header: 
  seq: 52659
  stamp: 
    secs: 1504394070
    nsecs: 474535480
  frame_id: ''
axes: [-0.5209826827049255, 1.0, -0.22939221560955048, -1.0, 0.0, 0.0]
buttons: [0, 0, 0, 0, 1, 0, 0, 0, 0, 0, 0, 0]
---
header: 
  seq: 52660
  stamp: 
    secs: 1504394070
    nsecs: 474535480
  frame_id: ''
axes: [-0.5209826827049255, 1.0, -0.22939221560955048, -1.0, 0.0, 0.0]
buttons: [0, 0, 0, 0, 1, 0, 0, 0, 0, 0, 0, 0]
---
header: 
  seq: 52661
  stamp: 
    secs: 1504394070
    nsecs: 474535480
  frame_id: ''
axes: [-0.5209826827049255, 1.0, -0.22939221560955048, -1.0, 0.0, 0.0]
buttons: [0, 0, 0, 0, 1, 0, 0, 0, 0, 0, 0, 0]
---
header: 
  seq: 52662
  stamp: 
    secs: 1504394070
    nsecs: 474535480
  frame_id: ''
axes: [-0.5209826827049255, 1.0, -0.22939221560955048, -1.0, 0.0, 0.0]
buttons: [0, 0, 0, 0, 1, 0, 0, 0, 0, 0, 0, 0]
---
header: 
  seq: 52663
  stamp: 
    secs: 1504394070
    nsecs: 474535480
  frame_id: ''
axes: [-0.5209826827049255, 1.0, -0.22939221560955048, -1.0, 0.0, 0.0]
buttons: [0, 0, 0, 0, 1, 0, 0, 0, 0, 0, 0, 0]
---
header: 
  seq: 52664
  stamp: 
    secs: 1504394070
    nsecs: 474535480
  frame_id: ''
axes: [-0.5209826827049255, 1.0, -0.22939221560955048, -1.0, 0.0, 0.0]
buttons: [0, 0, 0, 0, 1, 0, 0, 0, 0, 0, 0, 0]
---
header: 
  seq: 52665
  stamp: 
    secs: 1504394070
    nsecs: 474535480
  frame_id: ''
axes: [-0.5209826827049255, 1.0, -0.22939221560955048, -1.0, 0.0, 0.0]
buttons: [0, 0, 0, 0, 1, 0, 0, 0, 0, 0, 0, 0]
---
header: 
  seq: 52666
  stamp: 
    secs: 1504394070
    nsecs: 474535480
  frame_id: ''
axes: [-0.5209826827049255, 1.0, -0.22939221560955048, -1.0, 0.0, 0.0]
